nome,lat,lon
L'Aquila,42.3498,13.3995
Teramo,42.6589,13.7044
Pescara,42.4618,14.2161
Chieti,42.3510,14.1675
Bari,41.1171,16.8719
Lecce,40.3515,18.1750
Taranto,40.4644,17.2470
Brindisi,40.6326,17.9410
Foggia,41.4622,15.5446
Andria,41.2276,16.2960
